{"type":"FeatureCollection","metadata":"GeoJSON of Purple Air Stations requested by station ID, data from PA API, AQI Index calculated using USEPA methods by NHBP, WGS 84 Coordinate System","features":[{"type":"Feature","properties":{"ID":44439,"label":"NHBP","flagged_high":0,"version":"6.01","WiFiSignal":"-55","PM2_5Value":"7.63","PM2_5_1hour":10.1,"PM2_5_24hour":11.1,"PM2_5_1week":14.8,"sensorDiff":"2.41","AQI":32,"AQIText":"Good","AQI1Hour":42,"AQI1HourText":"Good","AQI24Hour":46,"AQI24HourText":"Good","AQI1Week":57,"AQI1WeekText":"Moderate"},"geometry":{"type":"Point","coordinates":[-85.269179,42.102401]}},{"type":"Feature","properties":{"ID":41995,"label":"NHBP-ORIOLE","version":"6.01","WiFiSignal":"-71","PM2_5Value":"8.31","PM2_5_1hour":8.44,"PM2_5_24hour":10.2,"PM2_5_1week":15.1,"sensorDiff":"0.43","AQI":35,"AQIText":"Good","AQI1Hour":35,"AQI1HourText":"Good","AQI24Hour":43,"AQI24HourText":"Good","AQI1Week":57,"AQI1WeekText":"Moderate"},"geometry":{"type":"Point","coordinates":[-85.261472,42.103152]}},{"type":"Feature","properties":{"ID":41993,"label":"NHBP-LILAC","version":"6.01","WiFiSignal":"-62","PM2_5Value":"5.03","PM2_5_1hour":5.51,"PM2_5_24hour":8.38,"PM2_5_1week":14,"sensorDiff":"0.30","AQI":21,"AQIText":"Good","AQI1Hour":23,"AQI1HourText":"Good","AQI24Hour":35,"AQI24HourText":"Good","AQI1Week":55,"AQI1WeekText":"Moderate"},"geometry":{"type":"Point","coordinates":[-86.197547,43.078312]}},{"type":"Feature","properties":{"ID":42005,"label":"NHBP-Goat","flagged_high":1,"version":"6.01","WiFiSignal":"-61","PM2_5Value":"3.11","PM2_5_1hour":5.47,"PM2_5_24hour":11.8,"PM2_5_1week":17.5,"sensorDiff":"0.79","AQI":13,"AQIText":"Good","AQI1Hour":23,"AQI1HourText":"Good","AQI24Hour":49,"AQI24HourText":"Good","AQI1Week":62,"AQI1WeekText":"Moderate"},"geometry":{"type":"Point","coordinates":[-86.244534,43.22245]}},{"type":"Feature","properties":{"ID":41907,"label":"Hillman, Michigan","version":"6.01","WiFiSignal":"-82","PM2_5Value":"6.32","PM2_5_1hour":4.41,"PM2_5_24hour":6.07,"PM2_5_1week":12.3,"sensorDiff":"0.52","AQI":26,"AQIText":"Good","AQI1Hour":18,"AQI1HourText":"Good","AQI24Hour":25,"AQI24HourText":"Good","AQI1Week":51,"AQI1WeekText":"Moderate"},"geometry":{"type":"Point","coordinates":[-84.043517,45.048314]}},{"type":"Feature","properties":{"ID":97713,"label":"NHBP-OTTER","version":"6.01","WiFiSignal":"-79","PM2_5Value":"5.63","PM2_5_1hour":4.14,"PM2_5_24hour":7.65,"PM2_5_1week":13.1,"sensorDiff":"1.78","AQI":23,"AQIText":"Good","AQI1Hour":17,"AQI1HourText":"Good","AQI24Hour":32,"AQI24HourText":"Good","AQI1Week":53,"AQI1WeekText":"Moderate"},"geometry":{"type":"Point","coordinates":[-86.169369,42.964838]}},{"type":"Feature","properties":{"ID":97553,"label":"NHBP-OZ","flagged_high":1,"version":"6.01","WiFiSignal":"-70","PM2_5Value":"4.59","PM2_5_1hour":6.38,"PM2_5_24hour":7.89,"PM2_5_1week":12.1,"sensorDiff":"0.33","AQI":19,"AQIText":"Good","AQI1Hour":27,"AQI1HourText":"Good","AQI24Hour":33,"AQI24HourText":"Good","AQI1Week":51,"AQI1WeekText":"Moderate"},"geometry":{"type":"Point","coordinates":[-85.267526,42.105281]}},{"type":"Feature","properties":{"ID":97743,"label":"NHBP-PIPER","version":"6.01","WiFiSignal":"-51","PM2_5Value":"7.65","PM2_5_1hour":8.83,"PM2_5_24hour":7.91,"PM2_5_1week":12.5,"sensorDiff":"0.35","AQI":32,"AQIText":"Good","AQI1Hour":37,"AQI1HourText":"Good","AQI24Hour":33,"AQI24HourText":"Good","AQI1Week":52,"AQI1WeekText":"Moderate"},"geometry":{"type":"Point","coordinates":[-85.122212,42.264888]}},{"type":"Feature","properties":{"ID":97679,"label":"NHBP-BUSTER","version":"6.01","WiFiSignal":"-82","PM2_5Value":"9.98","PM2_5_1hour":15.7,"PM2_5_24hour":11.3,"PM2_5_1week":16.6,"sensorDiff":"2.41","AQI":42,"AQIText":"Good","AQI1Hour":59,"AQI1HourText":"Moderate","AQI24Hour":47,"AQI24HourText":"Good","AQI1Week":60,"AQI1WeekText":"Moderate"},"geometry":{"type":"Point","coordinates":[-86.185903,43.310467]}},{"type":"Feature","properties":{"ID":91997,"label":"NHBP-BOSTON","version":"6.01","WiFiSignal":"-89","PM2_5Value":"6.33","PM2_5_1hour":8.24,"PM2_5_24hour":10.1,"PM2_5_1week":16,"sensorDiff":"0.00","AQI":26,"AQIText":"Good","AQI1Hour":34,"AQI1HourText":"Good","AQI24Hour":42,"AQI24HourText":"Good","AQI1Week":59,"AQI1WeekText":"Moderate"},"geometry":{"type":"Point","coordinates":[-85.585801,42.233049]}},{"type":"Feature","properties":{"ID":97559,"label":"NHBP-AIR","flagged_high":1,"version":"6.01","WiFiSignal":"-80","PM2_5Value":"4.98","PM2_5_1hour":5.04,"PM2_5_24hour":7.16,"PM2_5_1week":12.4,"sensorDiff":"0.77","AQI":21,"AQIText":"Good","AQI1Hour":21,"AQI1HourText":"Good","AQI24Hour":30,"AQI24HourText":"Good","AQI1Week":52,"AQI1WeekText":"Moderate"},"geometry":{"type":"Point","coordinates":[-86.162829,43.026822]}},{"type":"Feature","properties":{"ID":95527,"label":"NHBP-GOODRICH","flagged_high":1,"version":"6.01","WiFiSignal":"-78","PM2_5Value":"5.91","PM2_5_1hour":6.11,"PM2_5_24hour":8.04,"PM2_5_1week":13.2,"sensorDiff":"0.16","AQI":25,"AQIText":"Good","AQI1Hour":25,"AQI1HourText":"Good","AQI24Hour":34,"AQI24HourText":"Good","AQI1Week":53,"AQI1WeekText":"Moderate"},"geometry":{"type":"Point","coordinates":[-85.888085,42.394767]}},{"type":"Feature","properties":{"ID":92021,"label":"NHBP-BUDDYJONES","version":"6.01","WiFiSignal":"-91","PM2_5Value":"4.42","PM2_5_1hour":null,"PM2_5_24hour":7.96,"PM2_5_1week":13.6,"sensorDiff":"1.53","AQI":18,"AQIText":"Good","AQI1Hour":null,"AQI1HourText":"Good","AQI24Hour":33,"AQI24HourText":"Good","AQI1Week":54,"AQI1WeekText":"Moderate"},"geometry":{"type":"Point","coordinates":[-85.787829,42.848254]}}]}